order_id,scheduled_date,lon,lat,city,service_time_min,priority,datetime_ingestion
ord-5a03bc2f,2025-10-12,-8.442464,41.543432,braga,20,high,2025-10-21 22:26:34.029051+00:00
ord-7c7d1fad,2025-10-12,-6.766516,41.806472,bragança,15,low,2025-10-21 22:26:34.029051+00:00
ord-059bb362,2025-10-12,-7.508173,39.834113,castelo branco,15,normal,2025-10-21 22:26:34.029051+00:00
ord-eb9980aa,2025-10-12,-8.889853,38.525065,setúbal,10,low,2025-10-21 22:26:34.029051+00:00
ord-e57d16a8,2025-10-12,-7.896496,38.566243,évora,10,high,2025-10-21 22:26:34.029051+00:00
ord-f9097481,2025-10-12,-7.482146,39.821833,castelo branco,5,low,2025-10-21 22:26:34.029051+00:00
ord-3716a4d1,2025-10-12,-8.821704,39.751271,leiria,15,high,2025-10-21 22:26:34.029051+00:00
ord-4eb15543,2025-10-12,-7.747704,41.301837,vilareal,20,high,2025-10-21 22:26:34.029051+00:00
